[
  {
    "number": 42,
    "name": "SMITHFIELD NORTH",
    "address": "Smithfield North",
    "position": {
      "lat": 53.349562,
      "lng": -6.278198
    },
    "banking": true,
    "bonus": false,
    "status": "OPEN",
    "contract_name": "Dublin",
    "bike_stands": 30,
    "available_bike_stands": 0,
    "available_bikes": 30,
    "last_update": 1489528675000
  },
  {
    "number": 30,
    "name": "PARNELL SQUARE NORTH",
    "address": "Parnell Square North",
    "position": {
      "lat": 53.353462,
      "lng": -6.265305
    },
    "banking": true,
    "bonus": false,
    "status": "OPEN",
    "contract_name": "Dublin",
    "bike_stands": 20,
    "available_bike_stands": 20,
    "available_bikes": 0,
    "last_update": 1489528500000
  },
  {
    "number": 32,
    "name": "PEARSE STREET",
    "address": "Pearse Street",
    "position": {
      "lat": 53.344304,
      "lng": -6.250427
    },
    "banking": true,
    "bonus": false,
    "status": "OPEN",
    "contract_name": "Dublin",
    "bike_stands": 30,
    "available_bike_stands": 21,
    "available_bikes": 9,
    "last_update": 1489528860000
  },
  {
    "number": 48,
    "name": "EXCISE WALK",
    "address": "Excise Walk",
    "position": {
      "lat": 53.347777,
      "lng": -6.244239
    },
    "banking": false,
    "bonus": false,
    "status": "OPEN",
    "contract_name": "Dublin",
    "bike_stands": 40,
    "available_bike_stands": 36,
    "available_bikes": 4,
    "last_update": 1489528735000
  },
  {
    "number": 13,
    "name": "FITZWILLIAM SQUARE WEST",
    "address": "Fitzwilliam Square West",
    "position": {
      "lat": 53.336074,
      "lng": -6.252825
    },
    "banking": false,
    "bonus": false,
    "status": "OPEN",
    "contract_name": "Dublin",
    "bike_stands": 30,
    "available_bike_stands": 29,
    "available_bikes": 1,
    "last_update": 1489528505000
  },
  {
    "number": 81,
    "name": "ST. JAMES HOSPITAL (CENTRAL)",
    "address": "St. James Hospital (Central)",
    "position": {
      "lat": 53.339983,
      "lng": -6.295594
    },
    "banking": false,
    "bonus": false,
    "status": "OPEN",
    "contract_name": "Dublin",
    "bike_stands": 40,
    "available_bike_stands": 8,
    "available_bikes": 32,
    "last_update": 1489528838000
  },
  {
    "number": 68,
    "name": "HANOVER QUAY",
    "address": "Hanover Quay",
    "position": {
      "lat": 53.344115,
      "lng": -6.237153
    },
    "banking": true,
    "bonus": false,
    "status": "OPEN",
    "contract_name": "Dublin",
    "bike_stands": 40,
    "available_bike_stands": 38,
    "available_bikes": 2,
    "last_update": 1489528762000
  },
  {
    "number": 74,
    "name": "OLIVER BOND STREET",
    "address": "Oliver Bond Street",
    "position": {
      "lat": 53.343893,
      "lng": -6.280531
    },
    "banking": false,
    "bonus": false,
    "status": "OPEN",
    "contract_name": "Dublin",
    "bike_stands": 30,
    "available_bike_stands": 3,
    "available_bikes": 27,
    "last_update": 1489528537000
  },
  {
    "number": 87,
    "name": "COLLINS BARRACKS MUSEUM",
    "address": "Collins Barracks Museum",
    "position": {
      "lat": 53.347477,
      "lng": -6.28525
    },
    "banking": true,
    "bonus": false,
    "status": "OPEN",
    "contract_name": "Dublin",
    "bike_stands": 38,
    "available_bike_stands": 0,
    "available_bikes": 38,
    "last_update": 1489528693000
  },
  {
    "number": 84,
    "name": "BROOKFIELD ROAD",
    "address": "Brookfield Road",
    "position": {
      "lat": 53.339005,
      "lng": -6.300217
    },
    "banking": false,
    "bonus": false,
    "status": "OPEN",
    "contract_name": "Dublin",
    "bike_stands": 30,
    "available_bike_stands": 0,
    "available_bikes": 30,
    "last_update": 1489528493000
  },
  {
    "number": 54,
    "name": "CLONMEL STREET",
    "address": "Clonmel Street",
    "position": {
      "lat": 53.336021,
      "lng": -6.26298
    },
    "banking": false,
    "bonus": false,
    "status": "OPEN",
    "contract_name": "Dublin",
    "bike_stands": 33,
    "available_bike_stands": 33,
    "available_bikes": 0,
    "last_update": 1489528649000
  },
  {
    "number": 20,
    "name": "JAMES STREET EAST",
    "address": "James Street East",
    "position": {
      "lat": 53.336485,
      "lng": -6.248174
    },
    "banking": false,
    "bonus": false,
    "status": "OPEN",
    "contract_name": "Dublin",
    "bike_stands": 30,
    "available_bike_stands": 30,
    "available_bikes": 0,
    "last_update": 1489528651000
  },
  {
    "number": 56,
    "name": "MOUNT STREET LOWER",
    "address": "Mount Street Lower",
    "position": {
      "lat": 53.33796,
      "lng": -6.24153
    },
    "banking": false,
    "bonus": false,
    "status": "OPEN",
    "contract_name": "Dublin",
    "bike_stands": 40,
    "available_bike_stands": 38,
    "available_bikes": 2,
    "last_update": 1489528660000
  },
  {
    "number": 6,
    "name": "CHRISTCHURCH PLACE",
    "address": "Christchurch Place",
    "position": {
      "lat": 53.343368,
      "lng": -6.27012
    },
    "banking": false,
    "bonus": false,
    "status": "OPEN",
    "contract_name": "Dublin",
    "bike_stands": 20,
    "available_bike_stands": 19,
    "available_bikes": 1,
    "last_update": 1489528658000
  },
  {
    "number": 18,
    "name": "GRANTHAM STREET",
    "address": "Grantham Street",
    "position": {
      "lat": 53.334123,
      "lng": -6.265436
    },
    "banking": true,
    "bonus": false,
    "status": "OPEN",
    "contract_name": "Dublin",
    "bike_stands": 30,
    "available_bike_stands": 7,
    "available_bikes": 23,
    "last_update": 1489528607000
  },
  {
    "number": 52,
    "name": "YORK STREET EAST",
    "address": "York Street East",
    "position": {
      "lat": 53.338755,
      "lng": -6.262003
    },
    "banking": false,
    "bonus": false,
    "status": "OPEN",
    "contract_name": "Dublin",
    "bike_stands": 32,
    "available_bike_stands": 32,
    "available_bikes": 0,
    "last_update": 1489528542000
  },
  {
    "number": 43,
    "name": "PORTOBELLO ROAD",
    "address": "Portobello Road",
    "position": {
      "lat": 53.330091,
      "lng": -6.268044
    },
    "banking": true,
    "bonus": false,
    "status": "OPEN",
    "contract_name": "Dublin",
    "bike_stands": 30,
    "available_bike_stands": 1,
    "available_bikes": 29,
    "last_update": 1489528752000
  },
  {
    "number": 31,
    "name": "PARNELL STREET",
    "address": "Parnell Street",
    "position": {
      "lat": 53.350929,
      "lng": -6.265125
    },
    "banking": false,
    "bonus": false,
    "status": "OPEN",
    "contract_name": "Dublin",
    "bike_stands": 20,
    "available_bike_stands": 19,
    "available_bikes": 1,
    "last_update": 1489528846000
  },
  {
    "number": 98,
    "name": "FREDERICK STREET SOUTH",
    "address": "Frederick Street South",
    "position": {
      "lat": 53.341515,
      "lng": -6.256853
    },
    "banking": true,
    "bonus": false,
    "status": "OPEN",
    "contract_name": "Dublin",
    "bike_stands": 30,
    "available_bike_stands": 29,
    "available_bikes": 1,
    "last_update": 1489528390000
  },
  {
    "number": 14,
    "name": "FOWNES STREET UPPER",
    "address": "Fownes Street Upper",
    "position": {
      "lat": 53.344603,
      "lng": -6.263371
    },
    "banking": false,
    "bonus": false,
    "status": "OPEN",
    "contract_name": "Dublin",
    "bike_stands": 30,
    "available_bike_stands": 15,
    "available_bikes": 14,
    "last_update": 1489528848000
  },
  {
    "number": 1,
    "name": "CHATHAM STREET",
    "address": "Chatham Street",
    "position": {
      "lat": 53.340962,
      "lng": -6.262287
    },
    "banking": false,
    "bonus": false,
    "status": "OPEN",
    "contract_name": "Dublin",
    "bike_stands": 29,
    "available_bike_stands": 26,
    "available_bikes": 3,
    "last_update": 1489528484000
  },
  {
    "number": 23,
    "name": "CUSTOM HOUSE",
    "address": "Custom House",
    "position": {
      "lat": 53.348279,
      "lng": -6.254662
    },
    "banking": true,
    "bonus": false,
    "status": "OPEN",
    "contract_name": "Dublin",
    "bike_stands": 30,
    "available_bike_stands": 12,
    "available_bikes": 18,
    "last_update": 1489528851000
  },
  {
    "number": 90,
    "name": "BENSON STREET",
    "address": "Benson Street",
    "position": {
      "lat": 53.344153,
      "lng": -6.233451
    },
    "banking": false,
    "bonus": false,
    "status": "OPEN",
    "contract_name": "Dublin",
    "bike_stands": 40,
    "available_bike_stands": 38,
    "available_bikes": 2,
    "last_update": 1489528457000
  },
  {
    "number": 63,
    "name": "FENIAN STREET",
    "address": "Fenian Street",
    "position": {
      "lat": 53.341428,
      "lng": -6.24672
    },
    "banking": false,
    "bonus": false,
    "status": "OPEN",
    "contract_name": "Dublin",
    "bike_stands": 35,
    "available_bike_stands": 34,
    "available_bikes": 1,
    "last_update": 1489528647000
  },
  {
    "number": 91,
    "name": "SOUTH DOCK ROAD",
    "address": "South Dock Road",
    "position": {
      "lat": 53.341833,
      "lng": -6.231291
    },
    "banking": false,
    "bonus": false,
    "status": "OPEN",
    "contract_name": "Dublin",
    "bike_stands": 30,
    "available_bike_stands": 15,
    "available_bikes": 14,
    "last_update": 1489528832000
  },
  {
    "number": 67,
    "name": "THE POINT",
    "address": "The Point",
    "position": {
      "lat": 53.346867,
      "lng": -6.230852
    },
    "banking": true,
    "bonus": false,
    "status": "OPEN",
    "contract_name": "Dublin",
    "bike_stands": 40,
    "available_bike_stands": 23,
    "available_bikes": 17,
    "last_update": 1489528732000
  },
  {
    "number": 62,
    "name": "LIME STREET",
    "address": "Lime Street",
    "position": {
      "lat": 53.346026,
      "lng": -6.243576
    },
    "banking": false,
    "bonus": false,
    "status": "OPEN",
    "contract_name": "Dublin",
    "bike_stands": 40,
    "available_bike_stands": 37,
    "available_bikes": 3,
    "last_update": 1489528764000
  },
  {
    "number": 97,
    "name": "KILMAINHAM GAOL",
    "address": "Kilmainham Gaol",
    "position": {
      "lat": 53.342113,
      "lng": -6.310015
    },
    "banking": true,
    "bonus": false,
    "status": "OPEN",
    "contract_name": "Dublin",
    "bike_stands": 40,
    "available_bike_stands": 17,
    "available_bikes": 23,
    "last_update": 1489528857000
  },
  {
    "number": 49,
    "name": "GUILD STREET",
    "address": "Guild Street",
    "position": {
      "lat": 53.347932,
      "lng": -6.240928
    },
    "banking": false,
    "bonus": false,
    "status": "OPEN",
    "contract_name": "Dublin",
    "bike_stands": 40,
    "available_bike_stands": 37,
    "available_bikes": 3,
    "last_update": 1489528687000
  },
  {
    "number": 19,
    "name": "HERBERT PLACE",
    "address": "Herbert Place",
    "position": {
      "lat": 53.334432,
      "lng": -6.245575
    },
    "banking": false,
    "bonus": false,
    "status": "OPEN",
    "contract_name": "Dublin",
    "bike_stands": 30,
    "available_bike_stands": 27,
    "available_bikes": 3,
    "last_update": 1489528734000
  },
  {
    "number": 102,
    "name": "WESTERN WAY",
    "address": "Western Way",
    "position": {
      "lat": 53.354929,
      "lng": -6.269425
    },
    "banking": false,
    "bonus": false,
    "status": "OPEN",
    "contract_name": "Dublin",
    "bike_stands": 40,
    "available_bike_stands": 32,
    "available_bikes": 8,
    "last_update": 1489528616000
  },
  {
    "number": 53,
    "name": "NEWMAN HOUSE",
    "address": "Newman House",
    "position": {
      "lat": 53.337132,
      "lng": -6.26059
    },
    "banking": false,
    "bonus": false,
    "status": "OPEN",
    "contract_name": "Dublin",
    "bike_stands": 40,
    "available_bike_stands": 40,
    "available_bikes": 0,
    "last_update": 1489528607000
  },
  {
    "number": 101,
    "name": "KING STREET NORTH",
    "address": "King Street North",
    "position": {
      "lat": 53.350291,
      "lng": -6.273507
    },
    "banking": false,
    "bonus": false,
    "status": "OPEN",
    "contract_name": "Dublin",
    "bike_stands": 30,
    "available_bike_stands": 7,
    "available_bikes": 23,
    "last_update": 1489528530000
  },
  {
    "number": 47,
    "name": "HERBERT STREET",
    "address": "Herbert Street",
    "position": {
      "lat": 53.335742,
      "lng": -6.24551
    },
    "banking": false,
    "bonus": false,
    "status": "OPEN",
    "contract_name": "Dublin",
    "bike_stands": 40,
    "available_bike_stands": 40,
    "available_bikes": 0,
    "last_update": 1489528744000
  },
  {
    "number": 11,
    "name": "EARLSFORT TERRACE",
    "address": "Earlsfort Terrace",
    "position": {
      "lat": 53.334019,
      "lng": -6.258371
    },
    "banking": false,
    "bonus": false,
    "status": "OPEN",
    "contract_name": "Dublin",
    "bike_stands": 30,
    "available_bike_stands": 28,
    "available_bikes": 2,
    "last_update": 1489528684000
  },
  {
    "number": 17,
    "name": "GOLDEN LANE",
    "address": "Golden Lane",
    "position": {
      "lat": 53.340803,
      "lng": -6.267732
    },
    "banking": false,
    "bonus": false,
    "status": "OPEN",
    "contract_name": "Dublin",
    "bike_stands": 20,
    "available_bike_stands": 20,
    "available_bikes": 0,
    "last_update": 1489528732000
  },
  {
    "number": 45,
    "name": "DEVERELL PLACE",
    "address": "Deverell Place",
    "position": {
      "lat": 53.351464,
      "lng": -6.255265
    },
    "banking": false,
    "bonus": false,
    "status": "OPEN",
    "contract_name": "Dublin",
    "bike_stands": 30,
    "available_bike_stands": 0,
    "available_bikes": 30,
    "last_update": 1489528561000
  },
  {
    "number": 72,
    "name": "JOHN STREET WEST",
    "address": "John Street West",
    "position": {
      "lat": 53.343105,
      "lng": -6.277167
    },
    "banking": false,
    "bonus": false,
    "status": "OPEN",
    "contract_name": "Dublin",
    "bike_stands": 31,
    "available_bike_stands": 16,
    "available_bikes": 15,
    "last_update": 1489528838000
  },
  {
    "number": 99,
    "name": "CITY QUAY",
    "address": "City Quay",
    "position": {
      "lat": 53.346637,
      "lng": -6.246154
    },
    "banking": false,
    "bonus": false,
    "status": "OPEN",
    "contract_name": "Dublin",
    "bike_stands": 30,
    "available_bike_stands": 30,
    "available_bikes": 0,
    "last_update": 1489528499000
  },
  {
    "number": 9,
    "name": "EXCHEQUER STREET",
    "address": "Exchequer Street",
    "position": {
      "lat": 53.343034,
      "lng": -6.263578
    },
    "banking": false,
    "bonus": false,
    "status": "OPEN",
    "contract_name": "Dublin",
    "bike_stands": 24,
    "available_bike_stands": 22,
    "available_bikes": 2,
    "last_update": 1489528807000
  },
  {
    "number": 55,
    "name": "HATCH STREET",
    "address": "Hatch Street",
    "position": {
      "lat": 53.33403,
      "lng": -6.260714
    },
    "banking": false,
    "bonus": false,
    "status": "OPEN",
    "contract_name": "Dublin",
    "bike_stands": 36,
    "available_bike_stands": 36,
    "available_bikes": 0,
    "last_update": 1489528360000
  },
  {
    "number": 5,
    "name": "CHARLEMONT PLACE",
    "address": "Charlemont Street",
    "position": {
      "lat": 53.330662,
      "lng": -6.260177
    },
    "banking": false,
    "bonus": false,
    "status": "OPEN",
    "contract_name": "Dublin",
    "bike_stands": 40,
    "available_bike_stands": 5,
    "available_bikes": 35,
    "last_update": 1489528867000
  },
  {
    "number": 61,
    "name": "HARDWICKE PLACE",
    "address": "Hardwicke Place",
    "position": {
      "lat": 53.357043,
      "lng": -6.263232
    },
    "banking": true,
    "bonus": false,
    "status": "OPEN",
    "contract_name": "Dublin",
    "bike_stands": 25,
    "available_bike_stands": 13,
    "available_bikes": 12,
    "last_update": 1489528635000
  },
  {
    "number": 77,
    "name": "WOLFE TONE STREET",
    "address": "Wolfe Tone Street",
    "position": {
      "lat": 53.348875,
      "lng": -6.267459
    },
    "banking": false,
    "bonus": false,
    "status": "OPEN",
    "contract_name": "Dublin",
    "bike_stands": 29,
    "available_bike_stands": 27,
    "available_bikes": 2,
    "last_update": 1489528864000
  },
  {
    "number": 73,
    "name": "FRANCIS STREET",
    "address": "Francis Street",
    "position": {
      "lat": 53.342081,
      "lng": -6.275233
    },
    "banking": true,
    "bonus": false,
    "status": "OPEN",
    "contract_name": "Dublin",
    "bike_stands": 30,
    "available_bike_stands": 3,
    "available_bikes": 27,
    "last_update": 1489528522000
  },
  {
    "number": 4,
    "name": "GREEK STREET",
    "address": "Greek Street",
    "position": {
      "lat": 53.346874,
      "lng": -6.272976
    },
    "banking": false,
    "bonus": false,
    "status": "OPEN",
    "contract_name": "Dublin",
    "bike_stands": 20,
    "available_bike_stands": 5,
    "available_bikes": 15,
    "last_update": 1489528439000
  },
  {
    "number": 7,
    "name": "HIGH STREET",
    "address": "High Street",
    "position": {
      "lat": 53.343565,
      "lng": -6.275071
    },
    "banking": true,
    "bonus": false,
    "status": "OPEN",
    "contract_name": "Dublin",
    "bike_stands": 29,
    "available_bike_stands": 15,
    "available_bikes": 13,
    "last_update": 1489528840000
  },
  {
    "number": 60,
    "name": "NORTH CIRCULAR ROAD",
    "address": "North Circular Road",
    "position": {
      "lat": 53.359624,
      "lng": -6.260348
    },
    "banking": true,
    "bonus": false,
    "status": "OPEN",
    "contract_name": "Dublin",
    "bike_stands": 30,
    "available_bike_stands": 1,
    "available_bikes": 29,
    "last_update": 1489528741000
  },
  {
    "number": 38,
    "name": "TALBOT STREET",
    "address": "Talbot Street",
    "position": {
      "lat": 53.350974,
      "lng": -6.25294
    },
    "banking": false,
    "bonus": false,
    "status": "OPEN",
    "contract_name": "Dublin",
    "bike_stands": 40,
    "available_bike_stands": 2,
    "available_bikes": 38,
    "last_update": 1489528843000
  },
  {
    "number": 58,
    "name": "SIR PATRICK DUN'S",
    "address": "Sir Patrick's Dun",
    "position": {
      "lat": 53.339218,
      "lng": -6.240642
    },
    "banking": true,
    "bonus": false,
    "status": "OPEN",
    "contract_name": "Dublin",
    "bike_stands": 40,
    "available_bike_stands": 36,
    "available_bikes": 4,
    "last_update": 1489528829000
  },
  {
    "number": 66,
    "name": "NEW CENTRAL BANK",
    "address": "New Central Bank",
    "position": {
      "lat": 53.347122,
      "lng": -6.234749
    },
    "banking": false,
    "bonus": false,
    "status": "OPEN",
    "contract_name": "Dublin",
    "bike_stands": 40,
    "available_bike_stands": 24,
    "available_bikes": 16,
    "last_update": 1489528671000
  },
  {
    "number": 16,
    "name": "GEORGES QUAY",
    "address": "Georges Quay",
    "position": {
      "lat": 53.347508,
      "lng": -6.252192
    },
    "banking": false,
    "bonus": false,
    "status": "OPEN",
    "contract_name": "Dublin",
    "bike_stands": 20,
    "available_bike_stands": 18,
    "available_bikes": 2,
    "last_update": 1489528286000
  },
  {
    "number": 82,
    "name": "MOUNT BROWN",
    "address": "Mount Brown",
    "position": {
      "lat": 53.341645,
      "lng": -6.29719
    },
    "banking": false,
    "bonus": false,
    "status": "OPEN",
    "contract_name": "Dublin",
    "bike_stands": 22,
    "available_bike_stands": 1,
    "available_bikes": 21,
    "last_update": 1489528545000
  },
  {
    "number": 95,
    "name": "ROYAL HOSPITAL",
    "address": "Royal Hospital",
    "position": {
      "lat": 53.343897,
      "lng": -6.29706
    },
    "banking": true,
    "bonus": false,
    "status": "OPEN",
    "contract_name": "Dublin",
    "bike_stands": 40,
    "available_bike_stands": 1,
    "available_bikes": 39,
    "last_update": 1489528602000
  },
  {
    "number": 93,
    "name": "HEUSTON STATION (CENTRAL)",
    "address": "Heuston Station (Central)",
    "position": {
      "lat": 53.346603,
      "lng": -6.296924
    },
    "banking": false,
    "bonus": false,
    "status": "OPEN",
    "contract_name": "Dublin",
    "bike_stands": 40,
    "available_bike_stands": 5,
    "available_bikes": 35,
    "last_update": 1489528416000
  },
  {
    "number": 22,
    "name": "TOWNSEND STREET",
    "address": "Townsend Street",
    "position": {
      "lat": 53.345922,
      "lng": -6.254614
    },
    "banking": false,
    "bonus": false,
    "status": "OPEN",
    "contract_name": "Dublin",
    "bike_stands": 20,
    "available_bike_stands": 18,
    "available_bikes": 2,
    "last_update": 1489528490000
  },
  {
    "number": 34,
    "name": "PORTOBELLO HARBOUR",
    "address": "Portobello Harbour",
    "position": {
      "lat": 53.330362,
      "lng": -6.265163
    },
    "banking": false,
    "bonus": false,
    "status": "OPEN",
    "contract_name": "Dublin",
    "bike_stands": 30,
    "available_bike_stands": 1,
    "available_bikes": 29,
    "last_update": 1489528583000
  },
  {
    "number": 8,
    "name": "CUSTOM HOUSE QUAY",
    "address": "Custom House Quay",
    "position": {
      "lat": 53.347884,
      "lng": -6.248048
    },
    "banking": false,
    "bonus": false,
    "status": "OPEN",
    "contract_name": "Dublin",
    "bike_stands": 30,
    "available_bike_stands": 29,
    "available_bikes": 1,
    "last_update": 1489528342000
  },
  {
    "number": 27,
    "name": "MOLESWORTH STREET",
    "address": "Molesworth Street",
    "position": {
      "lat": 53.341288,
      "lng": -6.258117
    },
    "banking": false,
    "bonus": false,
    "status": "OPEN",
    "contract_name": "Dublin",
    "bike_stands": 20,
    "available_bike_stands": 20,
    "available_bikes": 0,
    "last_update": 1489528464000
  },
  {
    "number": 96,
    "name": "KILMAINHAM LANE",
    "address": "Kilmainham Lane",
    "position": {
      "lat": 53.341805,
      "lng": -6.305085
    },
    "banking": false,
    "bonus": false,
    "status": "OPEN",
    "contract_name": "Dublin",
    "bike_stands": 30,
    "available_bike_stands": 8,
    "available_bikes": 22,
    "last_update": 1489528571000
  },
  {
    "number": 76,
    "name": "MARKET STREET SOUTH",
    "address": "Market Street South",
    "position": {
      "lat": 53.342296,
      "lng": -6.287661
    },
    "banking": false,
    "bonus": false,
    "status": "OPEN",
    "contract_name": "Dublin",
    "bike_stands": 38,
    "available_bike_stands": 4,
    "available_bikes": 34,
    "last_update": 1489528464000
  },
  {
    "number": 71,
    "name": "KEVIN STREET",
    "address": "Kevin Street",
    "position": {
      "lat": 53.337757,
      "lng": -6.267699
    },
    "banking": true,
    "bonus": false,
    "status": "OPEN",
    "contract_name": "Dublin",
    "bike_stands": 40,
    "available_bike_stands": 39,
    "available_bikes": 1,
    "last_update": 1489528644000
  },
  {
    "number": 79,
    "name": "ECCLES STREET EAST",
    "address": "Eccles Street East",
    "position": {
      "lat": 53.358115,
      "lng": -6.265601
    },
    "banking": false,
    "bonus": false,
    "status": "OPEN",
    "contract_name": "Dublin",
    "bike_stands": 27,
    "available_bike_stands": 16,
    "available_bikes": 11,
    "last_update": 1489528391000
  },
  {
    "number": 69,
    "name": "GRAND CANAL DOCK",
    "address": "Grand Canal Dock",
    "position": {
      "lat": 53.342638,
      "lng": -6.238695
    },
    "banking": false,
    "bonus": false,
    "status": "OPEN",
    "contract_name": "Dublin",
    "bike_stands": 40,
    "available_bike_stands": 38,
    "available_bikes": 2,
    "last_update": 1489528585000
  },
  {
    "number": 25,
    "name": "MERRION SQUARE EAST",
    "address": "Merrion Square East",
    "position": {
      "lat": 53.339434,
      "lng": -6.246548
    },
    "banking": false,
    "bonus": false,
    "status": "OPEN",
    "contract_name": "Dublin",
    "bike_stands": 30,
    "available_bike_stands": 30,
    "available_bikes": 0,
    "last_update": 1489528770000
  },
  {
    "number": 51,
    "name": "YORK STREET WEST",
    "address": "York Street West",
    "position": {
      "lat": 53.339334,
      "lng": -6.264699
    },
    "banking": false,
    "bonus": false,
    "status": "OPEN",
    "contract_name": "Dublin",
    "bike_stands": 40,
    "available_bike_stands": 40,
    "available_bikes": 0,
    "last_update": 1489528854000
  },
  {
    "number": 37,
    "name": "ST. STEPHEN'S GREEN SOUTH",
    "address": "St. Stephen's Green South",
    "position": {
      "lat": 53.337494,
      "lng": -6.26199
    },
    "banking": true,
    "bonus": false,
    "status": "OPEN",
    "contract_name": "Dublin",
    "bike_stands": 30,
    "available_bike_stands": 30,
    "available_bikes": 0,
    "last_update": 1489528789000
  },
  {
    "number": 59,
    "name": "DENMARK STREET GREAT",
    "address": "Denmark Street Great",
    "position": {
      "lat": 53.35561,
      "lng": -6.261397
    },
    "banking": false,
    "bonus": false,
    "status": "OPEN",
    "contract_name": "Dublin",
    "bike_stands": 20,
    "available_bike_stands": 15,
    "available_bikes": 5,
    "last_update": 1489528273000
  },
  {
    "number": 94,
    "name": "HEUSTON STATION (CAR PARK)",
    "address": "Heuston Station (Car Park)",
    "position": {
      "lat": 53.346985,
      "lng": -6.297804
    },
    "banking": false,
    "bonus": false,
    "status": "OPEN",
    "contract_name": "Dublin",
    "bike_stands": 40,
    "available_bike_stands": 5,
    "available_bikes": 35,
    "last_update": 1489528574000
  },
  {
    "number": 36,
    "name": "ST. STEPHEN'S GREEN EAST",
    "address": "St. Stephen's Green East",
    "position": {
      "lat": 53.337824,
      "lng": -6.256035
    },
    "banking": true,
    "bonus": false,
    "status": "OPEN",
    "contract_name": "Dublin",
    "bike_stands": 40,
    "available_bike_stands": 39,
    "available_bikes": 1,
    "last_update": 1489528430000
  },
  {
    "number": 12,
    "name": "ECCLES STREET",
    "address": "Eccles Street",
    "position": {
      "lat": 53.359246,
      "lng": -6.269779
    },
    "banking": false,
    "bonus": false,
    "status": "OPEN",
    "contract_name": "Dublin",
    "bike_stands": 20,
    "available_bike_stands": 1,
    "available_bikes": 19,
    "last_update": 1489528483000
  },
  {
    "number": 78,
    "name": "MATER HOSPITAL",
    "address": "Mater Hospital",
    "position": {
      "lat": 53.359967,
      "lng": -6.264828
    },
    "banking": false,
    "bonus": false,
    "status": "OPEN",
    "contract_name": "Dublin",
    "bike_stands": 40,
    "available_bike_stands": 2,
    "available_bikes": 38,
    "last_update": 1489528822000
  },
  {
    "number": 2,
    "name": "BLESSINGTON STREET",
    "address": "Blessington Street",
    "position": {
      "lat": 53.356769,
      "lng": -6.26814
    },
    "banking": true,
    "bonus": false,
    "status": "OPEN",
    "contract_name": "Dublin",
    "bike_stands": 20,
    "available_bike_stands": 7,
    "available_bikes": 13,
    "last_update": 1489528791000
  },
  {
    "number": 26,
    "name": "MERRION SQUARE WEST",
    "address": "Merrion Square West",
    "position": {
      "lat": 53.339764,
      "lng": -6.251988
    },
    "banking": true,
    "bonus": false,
    "status": "OPEN",
    "contract_name": "Dublin",
    "bike_stands": 20,
    "available_bike_stands": 20,
    "available_bikes": 0,
    "last_update": 1489528648000
  },
  {
    "number": 65,
    "name": "CONVENTION CENTRE",
    "address": "Convention Centre",
    "position": {
      "lat": 53.34744,
      "lng": -6.238523
    },
    "banking": true,
    "bonus": false,
    "status": "OPEN",
    "contract_name": "Dublin",
    "bike_stands": 40,
    "available_bike_stands": 40,
    "available_bikes": 0,
    "last_update": 1489528591000
  },
  {
    "number": 15,
    "name": "HARDWICKE STREET",
    "address": "Hardwicke Street",
    "position": {
      "lat": 53.355473,
      "lng": -6.264423
    },
    "banking": false,
    "bonus": false,
    "status": "OPEN",
    "contract_name": "Dublin",
    "bike_stands": 16,
    "available_bike_stands": 13,
    "available_bikes": 3,
    "last_update": 1489528694000
  },
  {
    "number": 35,
    "name": "SMITHFIELD",
    "address": "Smithfield",
    "position": {
      "lat": 53.347692,
      "lng": -6.278214
    },
    "banking": false,
    "bonus": false,
    "status": "OPEN",
    "contract_name": "Dublin",
    "bike_stands": 30,
    "available_bike_stands": 0,
    "available_bikes": 30,
    "last_update": 1489528867000
  },
  {
    "number": 10,
    "name": "DAME STREET",
    "address": "Dame Street",
    "position": {
      "lat": 53.344007,
      "lng": -6.266802
    },
    "banking": true,
    "bonus": false,
    "status": "OPEN",
    "contract_name": "Dublin",
    "bike_stands": 16,
    "available_bike_stands": 14,
    "available_bikes": 2,
    "last_update": 1489528628000
  },
  {
    "number": 64,
    "name": "SANDWITH STREET",
    "address": "Sandwith Street",
    "position": {
      "lat": 53.345203,
      "lng": -6.247163
    },
    "banking": true,
    "bonus": false,
    "status": "OPEN",
    "contract_name": "Dublin",
    "bike_stands": 40,
    "available_bike_stands": 33,
    "available_bikes": 7,
    "last_update": 1489528718000
  },
  {
    "number": 33,
    "name": "PRINCES STREET / O'CONNELL STREET",
    "address": "Princes Street / O'Connell Street",
    "position": {
      "lat": 53.349013,
      "lng": -6.260311
    },
    "banking": true,
    "bonus": false,
    "status": "OPEN",
    "contract_name": "Dublin",
    "bike_stands": 23,
    "available_bike_stands": 9,
    "available_bikes": 14,
    "last_update": 1489528784000
  },
  {
    "number": 57,
    "name": "GRATTAN STREET",
    "address": "Grattan Street",
    "position": {
      "lat": 53.339629,
      "lng": -6.243778
    },
    "banking": false,
    "bonus": false,
    "status": "OPEN",
    "contract_name": "Dublin",
    "bike_stands": 23,
    "available_bike_stands": 20,
    "available_bikes": 3,
    "last_update": 1489528361000
  },
  {
    "number": 80,
    "name": "ST JAMES HOSPITAL (LUAS)",
    "address": "St James Hospital (Luas)",
    "position": {
      "lat": 53.341359,
      "lng": -6.292951
    },
    "banking": false,
    "bonus": false,
    "status": "OPEN",
    "contract_name": "Dublin",
    "bike_stands": 40,
    "available_bike_stands": 1,
    "available_bikes": 39,
    "last_update": 1489528848000
  },
  {
    "number": 3,
    "name": "BOLTON STREET",
    "address": "Bolton Street",
    "position": {
      "lat": 53.351182,
      "lng": -6.269859
    },
    "banking": false,
    "bonus": false,
    "status": "OPEN",
    "contract_name": "Dublin",
    "bike_stands": 20,
    "available_bike_stands": 18,
    "available_bikes": 1,
    "last_update": 1489528759000
  },
  {
    "number": 46,
    "name": "STRAND STREET GREAT",
    "address": "Strand Street Great",
    "position": {
      "lat": 53.347082,
      "lng": -6.264192
    },
    "banking": true,
    "bonus": false,
    "status": "OPEN",
    "contract_name": "Dublin",
    "bike_stands": 35,
    "available_bike_stands": 22,
    "available_bikes": 13,
    "last_update": 1489528613000
  },
  {
    "number": 70,
    "name": "BARROW STREET",
    "address": "Barrow Street",
    "position": {
      "lat": 53.341655,
      "lng": -6.236198
    },
    "banking": true,
    "bonus": false,
    "status": "OPEN",
    "contract_name": "Dublin",
    "bike_stands": 40,
    "available_bike_stands": 29,
    "available_bikes": 10,
    "last_update": 1489528854000
  },
  {
    "number": 28,
    "name": "MOUNTJOY SQUARE WEST",
    "address": "Mountjoy Square West",
    "position": {
      "lat": 53.356299,
      "lng": -6.258586
    },
    "banking": false,
    "bonus": false,
    "status": "OPEN",
    "contract_name": "Dublin",
    "bike_stands": 30,
    "available_bike_stands": 1,
    "available_bikes": 29,
    "last_update": 1489528550000
  },
  {
    "number": 39,
    "name": "WILTON TERRACE",
    "address": "Wilton Terrace",
    "position": {
      "lat": 53.332383,
      "lng": -6.252717
    },
    "banking": true,
    "bonus": false,
    "status": "OPEN",
    "contract_name": "Dublin",
    "bike_stands": 20,
    "available_bike_stands": 18,
    "available_bikes": 2,
    "last_update": 1489528543000
  },
  {
    "number": 21,
    "name": "LEINSTER STREET SOUTH",
    "address": "Leinster Street South",
    "position": {
      "lat": 53.34218,
      "lng": -6.254485
    },
    "banking": false,
    "bonus": false,
    "status": "OPEN",
    "contract_name": "Dublin",
    "bike_stands": 30,
    "available_bike_stands": 30,
    "available_bikes": 0,
    "last_update": 1489528609000
  },
  {
    "number": 75,
    "name": "JAMES STREET",
    "address": "James Street",
    "position": {
      "lat": 53.343456,
      "lng": -6.287409
    },
    "banking": true,
    "bonus": false,
    "status": "OPEN",
    "contract_name": "Dublin",
    "bike_stands": 40,
    "available_bike_stands": 22,
    "available_bikes": 18,
    "last_update": 1489528647000
  },
  {
    "number": 86,
    "name": "PARKGATE STREET",
    "address": "Parkgate Street",
    "position": {
      "lat": 53.347972,
      "lng": -6.291804
    },
    "banking": true,
    "bonus": false,
    "status": "OPEN",
    "contract_name": "Dublin",
    "bike_stands": 38,
    "available_bike_stands": 0,
    "available_bikes": 38,
    "last_update": 1489528638000
  },
  {
    "number": 100,
    "name": "HEUSTON BRIDGE (SOUTH)",
    "address": "Heuston Bridge (South)",
    "position": {
      "lat": 53.347106,
      "lng": -6.292041
    },
    "banking": false,
    "bonus": false,
    "status": "OPEN",
    "contract_name": "Dublin",
    "bike_stands": 25,
    "available_bike_stands": 1,
    "available_bikes": 24,
    "last_update": 1489528476000
  },
  {
    "number": 24,
    "name": "CATHAL BRUGHA STREET",
    "address": "Cathal Brugha Street",
    "position": {
      "lat": 53.352149,
      "lng": -6.260533
    },
    "banking": false,
    "bonus": false,
    "status": "OPEN",
    "contract_name": "Dublin",
    "bike_stands": 20,
    "available_bike_stands": 8,
    "available_bikes": 12,
    "last_update": 1489528823000
  },
  {
    "number": 85,
    "name": "ROTHE ABBEY",
    "address": "Rothe Abbey",
    "position": {
      "lat": 53.338776,
      "lng": -6.30395
    },
    "banking": true,
    "bonus": false,
    "status": "OPEN",
    "contract_name": "Dublin",
    "bike_stands": 35,
    "available_bike_stands": 2,
    "available_bikes": 33,
    "last_update": 1489528843000
  },
  {
    "number": 44,
    "name": "UPPER SHERRARD STREET",
    "address": "Upper Sherrard Street",
    "position": {
      "lat": 53.358437,
      "lng": -6.260641
    },
    "banking": false,
    "bonus": false,
    "status": "OPEN",
    "contract_name": "Dublin",
    "bike_stands": 30,
    "available_bike_stands": 0,
    "available_bikes": 30,
    "last_update": 1489528790000
  },
  {
    "number": 89,
    "name": "FITZWILLIAM SQUARE EAST",
    "address": "Fitzwilliam Square East",
    "position": {
      "lat": 53.335211,
      "lng": -6.2509
    },
    "banking": true,
    "bonus": false,
    "status": "OPEN",
    "contract_name": "Dublin",
    "bike_stands": 40,
    "available_bike_stands": 40,
    "available_bikes": 0,
    "last_update": 1489528454000
  },
  {
    "number": 41,
    "name": "HARCOURT TERRACE",
    "address": "Harcourt Terrace",
    "position": {
      "lat": 53.332763,
      "lng": -6.257942
    },
    "banking": false,
    "bonus": false,
    "status": "OPEN",
    "contract_name": "Dublin",
    "bike_stands": 20,
    "available_bike_stands": 11,
    "available_bikes": 9,
    "last_update": 1489528388000
  },
  {
    "number": 40,
    "name": "JERVIS STREET",
    "address": "Jervis Street",
    "position": {
      "lat": 53.3483,
      "lng": -6.266651
    },
    "banking": true,
    "bonus": false,
    "status": "OPEN",
    "contract_name": "Dublin",
    "bike_stands": 21,
    "available_bike_stands": 21,
    "available_bikes": 0,
    "last_update": 1489528272000
  },
  {
    "number": 29,
    "name": "ORMOND QUAY UPPER",
    "address": "Ormond Quay Upper",
    "position": {
      "lat": 53.346057,
      "lng": -6.268001
    },
    "banking": true,
    "bonus": false,
    "status": "OPEN",
    "contract_name": "Dublin",
    "bike_stands": 29,
    "available_bike_stands": 20,
    "available_bikes": 9,
    "last_update": 1489528721000
  },
  {
    "number": 83,
    "name": "EMMET ROAD",
    "address": "Emmet Road",
    "position": {
      "lat": 53.340714,
      "lng": -6.308191
    },
    "banking": false,
    "bonus": false,
    "status": "OPEN",
    "contract_name": "Dublin",
    "bike_stands": 40,
    "available_bike_stands": 0,
    "available_bikes": 40,
    "last_update": 1489528531000
  },
  {
    "number": 92,
    "name": "HEUSTON BRIDGE (NORTH)",
    "address": "Heuston Bridge (North)",
    "position": {
      "lat": 53.347802,
      "lng": -6.292432
    },
    "banking": false,
    "bonus": false,
    "status": "OPEN",
    "contract_name": "Dublin",
    "bike_stands": 40,
    "available_bike_stands": 0,
    "available_bikes": 40,
    "last_update": 1489528322000
  },
  {
    "number": 88,
    "name": "BLACKHALL PLACE",
    "address": "Blackhall Place",
    "position": {
      "lat": 53.3488,
      "lng": -6.281637
    },
    "banking": false,
    "bonus": false,
    "status": "OPEN",
    "contract_name": "Dublin",
    "bike_stands": 30,
    "available_bike_stands": 0,
    "available_bikes": 30,
    "last_update": 1489528758000
  }
]